,Domain Name,Domain Type,Agency,City,State,Latitude,Longitude
62,ANTIOCHTOWNSHIPIL.GOV,City,Non-Federal Agency,Lake Villa,IL,42.41696781,-88.07396706
77,ARTHUR-IL.GOV,City,Non-Federal Agency,Arthur,IL,39.7147596,-88.47227622
111,BARRINGTON-IL.GOV,City,Non-Federal Agency,Barrington,IL,42.15390765,-88.13618754
112,BARRINGTONHILLS-IL.GOV,City,Non-Federal Agency,Barrington Hills,IL,42.14474647,-88.15562582
131,BECKEMEYERIL.GOV,City,Non-Federal Agency,Beckemeyer,IL,38.60559902,-89.43591971
159,BENTONIL.GOV,City,Non-Federal Agency,Benton,IL,37.99671755,-88.92006748
167,BERWYN-IL.GOV,City,Non-Federal Agency,Berwyn,IL,41.85058957,-87.79366894
234,BRIDGEVIEW-IL.GOV,City,Non-Federal Agency,Bridgeview,IL,41.75002799,-87.804216
240,BROADVIEW-IL.GOV,City,Non-Federal Agency,Broadview,IL,41.86391739,-87.85338764
244,BROOKFIELDIL.GOV,City,Non-Federal Agency,Brookfield ,IL,41.82391594,-87.85172729
263,BURBANKIL.GOV,City,Non-Federal Agency,Burbank,IL,41.73391942,-87.7794997
274,BURR-RIDGE.GOV,City,Non-Federal Agency,Burr Ridge,IL,41.74891659,-87.91838887
334,CHAMPAIGN-IL.GOV,City,Non-Federal Agency,Champaign,IL,40.11641646,-88.24337703
335,CHAMPAIGNIL.GOV,City,Non-Federal Agency,Champaign,IL,40.11641646,-88.24337703
357,CHICAGO-IL.GOV,City,Non-Federal Agency,Chicago,IL,41.85002712,-87.65004618
371,CITYKANKAKEE-IL.GOV,City,Non-Federal Agency,KANKAKEE,IL,41.1200299,-87.86114945
390,CITYOFCHAMPAIGN-IL.GOV,City,Non-Federal Agency,Champaign,IL,40.11641646,-88.24337703
391,CITYOFCHAMPAIGNIL.GOV,City,Non-Federal Agency,Champaign,IL,40.11641646,-88.24337703
443,CITYOFMARIONIL.GOV,City,Non-Federal Agency,Marion,IL,37.73060667,-88.93312982
498,CITYOFWHEATON-IL.GOV,City,Non-Federal Agency,Wheaton,IL,41.86613569,-88.10700763
522,COALCITY-IL.GOV,City,Non-Federal Agency,Coal City,IL,41.28780651,-88.28561928
597,CUBAASSESSORIL.GOV,City,Non-Federal Agency,Barrington,IL,42.15390765,-88.13618754
598,CUBATWPIL.GOV,City,Non-Federal Agency,Barrington,IL,42.15390765,-88.13618754
620,DARIENIL.GOV,City,Non-Federal Agency,Darien,IL,41.75197632,-87.97394994
627,DECATURIL.GOV,City,Non-Federal Agency,Decatur,IL,39.84030746,-88.95479990000001
628,DECATURILLINOIS.GOV,City,Non-Federal Agency,Decatur,IL,39.84030746,-88.95479990000001
803,FORSYTH-IL.GOV,City,Non-Federal Agency,Forsyth,IL,39.93253577,-88.95118672
849,GALESBURG-IL.GOV,City,Non-Federal Agency,Galesburg,IL,40.94781668,-90.37123821
854,GALVAIL.GOV,City,Non-Federal Agency,Galva,IL,41.16753668,-90.04260987
903,GRANTFORKIL.GOV,City,Non-Federal Agency,Highland,IL,38.73948914,-89.67119933
992,HEYWORTH-IL.GOV,City,Non-Federal Agency,Heyworth,IL,40.31336848,-88.97368923
999,HIGHLANDIL.GOV,City,Non-Federal Agency,Highland,IL,38.73948914,-89.67119933
1016,HOMERGLENIL.GOV,City,Non-Federal Agency,Homer Glen,IL,41.6000293,-87.93810612
1017,HOMEWOODIL.GOV,City,Non-Federal Agency,Homewood,IL,41.5572561,-87.6655968
1019,HOOPESTON-IL.GOV,City,Non-Federal Agency,Hoopeston,IL,40.46725932,-87.66835956
1024,HOPKINSPARK-IL.GOV,City,Non-Federal Agency,Hopkins Park,IL,41.06336643,-87.6250284
1057,INDIANHEADPARK-IL.GOV,City,Non-Federal Agency,Indian Head Park,IL,41.77030769,-87.9022758
1065,INVERNESS-IL.GOV,City,Non-Federal Agency,Inverness,IL,42.11807733,-88.09618609
1157,LASALLE-IL.GOV,City,Non-Federal Agency,LaSalle,IL,41.26669888,-88.88340924
1202,LINCOLNIL.GOV,City,Non-Federal Agency,Lincoln,IL,40.14837712,-89.36481702
1203,LINCOLNSHIREIL.GOV,City,Non-Federal Agency,Lincolnshire,IL,42.19001695,-87.90839976
1246,LOVINGTON-IL.GOV,City,Non-Federal Agency,Lovington,IL,39.71558753,-88.63255649999999
1261,LYONSTOWNSHIPIL.GOV,City,Non-Federal Agency,Countryside,IL,41.78280758,-87.87810844
1269,MAHOMET-IL.GOV,City,Non-Federal Agency,Mahomet,IL,40.19530796,-88.40421976
1307,MAROAILLINOIS.GOV,City,Non-Federal Agency,Maroa,IL,40.03642705,-88.9570272
1308,MARSHALL-IL.GOV,City,Non-Federal Agency,Marshall,IL,39.39142729,-87.69363831
1408,MORTON-IL.GOV,City,Non-Federal Agency,Morton,IL,40.61281691,-89.45925914
1418,MOUNTPROSPECT-IL.GOV,City,Non-Federal Agency,Mount Prospect,IL,42.06641742,-87.93728719
1419,MOUNTPROSPECTIL.GOV,City,Non-Federal Agency,Mount Prospect,IL,42.06641742,-87.93728719
1427,MUNDELEIN-IL.GOV,City,Non-Federal Agency,Mundelein,IL,42.26307697,-88.00396678
1430,MURPHYSBORO-IL.GOV,City,Non-Federal Agency,Murphysboro,IL,37.76449766,-89.33508816
1502,NILES-IL.GOV,City,Non-Federal Agency,Niles,IL,42.01891963,-87.80283912
1520,NORRIDGE-IL.GOV,City,Non-Federal Agency,Norridge,IL,41.96335856,-87.82727646
1526,NORTHBROOKIL.GOV,City,Non-Federal Agency,Northbrook,IL,42.1275265,-87.82894581
1555,OAK-BROOK-IL.GOV,City,Non-Federal Agency,OAK BROOK,IL,41.83280715,-87.92894943
1562,OAKLAWN-IL.GOV,City,Non-Federal Agency,OAK LAWN,IL,41.71086797,-87.75810859
1605,PALOSHILLS-IL.GOV,City,Non-Federal Agency,Palos Hills,IL,41.69669873,-87.81699937
1713,QUINCYIL.GOV,City,Non-Federal Agency,Quincy,IL,39.9355955,-91.40986754
1772,ROCKFORD-IL.GOV,City,Non-Federal Agency,Rockford,IL,42.27112675,-89.09399955
1773,ROCKFORDIL.GOV,City,Non-Federal Agency,Rockford,IL,42.27112675,-89.09399955
1843,SAVANNA-IL.GOV,City,Non-Federal Agency,Savanna,IL,42.09446793,-90.15678724
1950,STCHARLESIL.GOV,City,Non-Federal Agency,St. Charles,IL,41.91418693,-88.30868874
1953,STERLING-IL.GOV,City,Non-Federal Agency,Sterling,IL,41.78863907,-89.69621711
1975,SUGARGROVEIL.GOV,City,Non-Federal Agency,Sugar Grove,IL,41.76141648,-88.44368576
2031,TOWERLAKES-IL.GOV,City,Non-Federal Agency,Tower Lakes,IL,42.23196673,-88.15201714
2127,UTICA-IL.GOV,City,Non-Federal Agency,Utica,IL,41.34058683,-89.01007750000001
2131,VBHIL.GOV,City,Non-Federal Agency,Barrington Hills,IL,42.14474647,-88.15562582
2146,VILLAGEOFCRESTWOODIL.GOV,City,Non-Federal Agency,Crestwood,IL,41.66113838,-87.75254709
2147,VILLAGEOFDUNLAP-IL.GOV,City,Non-Federal Agency,Dunlap,IL,40.86169882,-89.67870916
2166,VILLAGEOFWAUCONDA-IL.GOV,City,Non-Federal Agency,Wauconda,IL,42.25890584,-88.13924727
2204,WAUCONDA-IL.GOV,City,Non-Federal Agency,Wauconda,IL,42.25890584,-88.13924727
2205,WAUKEGANIL.GOV,City,Non-Federal Agency,Waukegan,IL,42.36362954,-87.84478890000001
2235,WESTFRANKFORT-IL.GOV,City,Non-Federal Agency,West Frankfort,IL,37.89782983,-88.93145597
2258,WHEELINGIL.GOV,City,Non-Federal Agency,Wheeling,IL,42.13918946,-87.92895843
2260,WHITECOUNTY-IL.GOV,City,Non-Federal Agency,Carmi,IL,38.0908762,-88.15864955
2282,WILLOWSPRINGS-IL.GOV,City,Non-Federal Agency,Willow Springs,IL,41.74086681,-87.86032602
2305,WOODSTOCKIL.GOV,City,Non-Federal Agency,Woodstock,IL,42.31473688,-88.44869831
